[{"id":"50117","code":null,"name":"Festival Plaza","latitude":-34.918659,"longitude":138.599202},{"id":"101756","code":"18846","name":"Festival Plaza Tram Stop","latitude":-34.918645,"longitude":138.599171},{"id":"101757","code":"18847","name":"Festival Plaza Tram Stop","latitude":-34.918731,"longitude":138.599217},{"id":"3289","code":"13179","name":"Stop 1 King William Rd - East side","latitude":-34.9148901432565,"longitude":138.59889639512},{"id":"3266","code":"13156","name":"Stop 1 King William Rd - West side","latitude":-34.9142300118528,"longitude":138.598589325489},{"id":"100623","code":"17721","name":"Stop 1 Sir Edwin Smith Ave - North side","latitude":-34.9150842735391,"longitude":138.599262096354},{"id":"100622","code":"17720","name":"Stop 1 Sir Edwin Smith Ave - South side","latitude":-34.915310467247,"longitude":138.599301249347},{"id":"101583","code":"18673","name":"Stop 1 Victoria Dr - North side","latitude":-34.916948,"longitude":138.605504},{"id":"101582","code":"18672","name":"Stop 1 Victoria Dr - South side","latitude":-34.917118,"longitude":138.605567},{"id":"101784","code":"18875","name":"Stop 1A Frome Rd - East side","latitude":-34.9166594816176,"longitude":138.60587855503},{"id":"101783","code":"18874","name":"Stop 1A Frome Rd - West side","latitude":-34.917284,"longitude":138.606021},{"id":"3200","code":"13091","name":"Stop 2 / Zone A King William Rd - North West side","latitude":-34.9121895440034,"longitude":138.598614616038},{"id":"100890","code":"17982","name":"Stop 2 / Zone B King William Rd - North West side","latitude":-34.912509,"longitude":138.598543},{"id":"3281","code":"13171","name":"Stop 2 Frome Rd - East side","latitude":-34.9147097884833,"longitude":138.60510615434},{"id":"3278","code":"13168","name":"Stop 2 Frome Rd - South West side","latitude":-34.914518019909,"longitude":138.604779021731},{"id":"3187","code":"13078","name":"Stop 2 King William Rd - South East side","latitude":-34.9114781262482,"longitude":138.599139112978},{"id":"100453","code":"17551","name":"Stop 2 Montefiore Rd - East side","latitude":-34.9170688848623,"longitude":138.593183941906},{"id":"100454","code":"17552","name":"Stop 2 Montefiore Rd - West side","latitude":-34.9170907076735,"longitude":138.592917575628},{"id":"6761","code":"16579","name":"Stop 2 Sir Edwin Smith Ave - East side","latitude":-34.9128683030034,"longitude":138.600714992594},{"id":"6762","code":"16580","name":"Stop 2 Sir Edwin Smith Ave - West side","latitude":-34.91276,"longitude":138.60052},{"id":"3173","code":"13064","name":"Stop 2A Melbourne St - South East side","latitude":-34.9100677015126,"longitude":138.601992752017},{"id":"101716","code":"18806","name":"Stop 3 Frome Rd - East side","latitude":-34.912147,"longitude":138.602386},{"id":"3204","code":"13095","name":"Stop 3 Jeffcott St - East side","latitude":-34.91222,"longitude":138.59348},{"id":"3195","code":"13086","name":"Stop 3 Jeffcott St - West side","latitude":-34.9120549147106,"longitude":138.593138158716},{"id":"101580","code":"18670","name":"Stop 3 Mackinnon Pde - North side","latitude":-34.911464,"longitude":138.602122},{"id":"101610","code":"18700","name":"Stop AO1 King William Rd - East side","latitude":-34.917801,"longitude":138.59929},{"id":"101603","code":"18693","name":"Stop AO10 Sir Edwin Smith Ave - South East side","latitude":-34.914523,"longitude":138.600088},{"id":"101611","code":"18701","name":"Stop AO11 Victoria Dr - South side","latitude":-34.917237,"longitude":138.599557},{"id":"101685","code":"18775","name":"Stop AO12 Victoria Dr - South side","latitude":-34.917187,"longitude":138.600147},{"id":"101612","code":"18702","name":"Stop AO13 Victoria Dr - North side","latitude":-34.917059,"longitude":138.600157},{"id":"101686","code":"18776","name":"Stop AO14 Victoria Dr - North side","latitude":-34.917051,"longitude":138.600648},{"id":"101614","code":"18704","name":"Stop AO15 King William Rd - West side","latitude":-34.917988,"longitude":138.598991},{"id":"101615","code":"18705","name":"Stop AO16 Sir Edwin Smith Ave - North West side","latitude":-34.914135,"longitude":138.600135},{"id":"101747","code":"18837","name":"Stop AO17 Sir Edwin Smith Ave - North West side","latitude":-34.914519,"longitude":138.599861},{"id":"101620","code":"18710","name":"Stop AO18 King William Rd - West side","latitude":-34.918918,"longitude":138.599019},{"id":"101618","code":"18708","name":"Stop AO19 King William Rd - West side","latitude":-34.9194761876909,"longitude":138.599101481668},{"id":"101609","code":"18699","name":"Stop AO2 King William Rd - East side","latitude":-34.918303,"longitude":138.599341},{"id":"101617","code":"18707","name":"Stop AO20 Sir Edwin Smith Ave - North West side","latitude":-34.914679,"longitude":138.599735},{"id":"101687","code":"18777","name":"Stop AO24 King William Rd - East side","latitude":-34.914702,"longitude":138.598901},{"id":"101688","code":"18778","name":"Stop AO25 and AO26 King William Rd - East side","latitude":-34.914153,"longitude":138.598851},{"id":"101707","code":"18797","name":"Stop AO29 Sir Edwin Smith Ave - North West side","latitude":-34.914839,"longitude":138.599607},{"id":"101608","code":"18698","name":"Stop AO3 King William Rd - East side","latitude":-34.918699,"longitude":138.599399},{"id":"101752","code":"18842","name":"Stop AO4 King William Rd - East side","latitude":-34.919337,"longitude":138.599443},{"id":"101753","code":"18843","name":"Stop AO5 King William Rd - East side","latitude":-34.919914,"longitude":138.599477},{"id":"101613","code":"18703","name":"Stop AOX15 King William Rd - West side","latitude":-34.91766,"longitude":138.598956},{"id":"101604","code":"18694","name":"Stop AOX9 Sir Edwin Smith Ave - South East side","latitude":-34.91493,"longitude":138.599732},{"id":"101581","code":"18671","name":"Stop Temp Mackinnon Pde / Frome Rd","latitude":-34.9115488412225,"longitude":138.602227464066},{"id":"6444","code":"16275","name":"Stop Z2 King William Rd - West side","latitude":-34.9199822909989,"longitude":138.599141417011},{"id":"6441","code":"16272","name":"Stop Z4 King William Rd - West side","latitude":-34.917839,"longitude":138.599039}]
